BlockName,Category,Year,Month,Day,Crop,DistrictName,QueryType,Season,Sector,StateName,QueryText,KccAns,latitude,longitude
"0   ",Fruits,2012,7,10,Mango,SRIKAKULAM,0,nan,HORTICULTURE,"ANDHRA PRADESH","asked about control of mealybugs in mango","control of mealybugs in mango -suggested to spray dichlorovas2mllit",18.2949,83.8939
VELLORE,Fruits,2012,11,14,Mango,VELLORE,93,KHARIF,HORTICULTURE,TAMILNADU,"red ant  mealybug in mango","spray monocrotophos 2mllit  mealy bug-australian lady birdbeetle",12.9022,79.0611
SALEM,Fruits,2012,5,8,Mango,SALEM,"Plant Protection",JAYAD,HORTICULTURE,TAMILNADU,"what is the control method for mango mealybug","apply quinolphos 2mllit",11.647,78.2107
"0   ",Fruits,2012,5,3,Mango,HOOGHLY,76,RABI,HORTICULTURE,"WEST BENGAL","ATTACK OF MEALYBUG IN MANGO","ATTACK OF ACETAMIPRID 20  SP  1 GM10 LIT OF WATER",22.9099,88.0121
"0   ",Fruits,2012,5,4,Mango,"North DINAJPUR",76,RABI,HORTICULTURE,"WEST BENGAL","ATTACK OF MEALYBUG IN MANGO","APPLY IMIDACLOPRID 178  SL  1 ML 5 LIT OF WATER",22.9965,87.6856
BOMMANAHAL,Fruits,2013,8,3,Mango,ANANTPUR,nan,nan,HORTICULTURE,"ANDHRA PRADESH",mealybugmango,"metasistax 2mlltr311831423103312831353128314931033093314931283149 2 31183136 31223136 31223136",13.5747,78.5029
MANIGACHHI,Fruits,2013,7,29,Mango,DARBHANGA,"Plant Protection",nan,HORTICULTURE,BIHAR,"MEALYBUG IN MANGO","SPRAY IMIDACHLOPRID 178 SL  1 ML 3 LITRE OF WATER",26.083,86.0325
NAWDA,Fruits,2013,5,9,Mango,MURSHIDABAD,"Plant Protection",RABI,HORTICULTURE,"WEST BENGAL","ATTACK OF MEALYBUG IN MANGO","SPRAY ACETAMIPRID 20  SP  1 GM 5 LIT OF WATER",24.1746,88.2721
TEHATTA-II,Fruits,2013,3,28,Mango,NADIA,76,KHARIF,HORTICULTURE,"WEST BENGAL","ATTACK OF MEALYBUG IN MANGO","SPRAY IMIDACLOPRID 178  SL  1 ML 5 LIT OF WATER",23.4847,88.5567
RAMPURHAT-I,Fruits,2013,3,27,Mango,BIRBHUM,76,RABI,HORTICULTURE,"WEST BENGAL","mango mealybug","spray monocrotophos  25 mll of water",24.0622,87.6983
CHITTOOR,Fruits,2014,12,13,Mango,CHITTOOR,"Plant Protection",nan,HORTICULTURE,"ANDHRA PRADESH","mango mealybug","cloropyripus 2mllit",13.2026,79.0032
SANGRAMPUR,Fruits,2014,4,17,Mango,MUNGER,"Plant Protection",nan,HORTICULTURE,BIHAR,"MEALYBUG IN MANGO","SPRAY IMIDACHLOPRID 178 SL  1 ML PER LITRE OF WATER ID-BIH6926181",25.2203,86.5162
DEDIYAPADA,Fruits,2014,5,22,Mango,NARMADA,"Plant Protection",JAYAD,HORTICULTURE,GUJARAT,"mango mealybug control","sprey prophenophos 30 mlpump",21.7393,73.6262
OLLUKKARA,Fruits,2014,11,8,Mango,THRISSUR,"Plant Protection",nan,HORTICULTURE,KERALA,"mango mealybug","apply neem garlic emulsion and tobacco emulsion daily to eradicate the mealy bug",10.527,76.2146
RAJGARH,Fruits,2014,5,17,Mango,RAJGARH,nan,RABI,HORTICULTURE,"MADHYA PRADESH","Gaint mealybug","If necessary apply methyl parathion1mllit chlopyriphos 20EC 25 mll",23.8717,76.7745
BALIKUDA,Fruits,2014,2,20,Mango,JAGATSINGHAPUR,nan,nan,HORTICULTURE,ODISHA,mealybug,"quinalphos 2mllitre and detergent sprayfoliar",20.1801,86.3415
BALIKUDA,Fruits,2014,2,20,Mango,JAGATSINGHAPUR,nan,nan,HORTICULTURE,ODISHA,mealybug,"quinalphos 2mllitre and detergent sprayfoliar",20.1801,86.3415
BALIKUDA,Fruits,2014,2,20,Mango,JAGATSINGHAPUR,nan,nan,HORTICULTURE,ODISHA,mealybug,"quinalphos 2mllitre and detergent sprayfoliar",20.1801,86.3415
BALIKUDA,Fruits,2014,2,20,Mango,JAGATSINGHAPUR,nan,nan,HORTICULTURE,ODISHA,mealybug,"quinalphos 2mllitre and detergent sprayfoliar",20.1801,86.3415
BALIKUDA,Fruits,2014,2,20,Mango,JAGATSINGHAPUR,nan,nan,HORTICULTURE,ODISHA,mealybug,"quinalphos 2mllitre and detergent sprayfoliar",20.1801,86.3415
THIRUPORUR,Fruits,2014,12,20,Mango,KANCHEEPURAM,"Plant Protection",RABI,HORTICULTURE,TAMILNADU,"Gaint mealybug in mango","Recommended for spray chlopyriphos 20EC 25 mllit of water",12.8796,79.7043
"RAMPUR MANIHARAN",Fruits,2014,11,21,Mango,SAHARANPUR,"Plant Protection",RABI,HORTICULTURE,"UTTAR PRADESH","mealybug in mango","2 ml dimethoate 30 ec  litre pani me ghol banakar spray kare",29.9857,77.5041
THAVANAMPALLE,Fruits,2015,12,14,Mango,CHITTOOR,"Plant Protection",nan,HORTICULTURE,"ANDHRA PRADESH","ABOUT MANAGEMENT OF THE MEALYBUG IN MANGO","Profenophos 400  acre IN 200 LITER WATER",13.2026,79.0032
BEN,Fruits,2015,5,10,Mango,NALANDA,"Plant Protection",JAYAD,HORTICULTURE,BIHAR,"Gaint mealybug","chlopyriphos 20EC 25 mll",25.1365,85.4437
DAUDNAGAR,Fruits,2015,8,19,Mango,AURANGABAD,"Plant Protection",KHARIF,HORTICULTURE,BIHAR,"Gaint mealybug","chlopyriphos 20EC 25 mll",24.8033,84.411
GHANSHYAMPUR,Fruits,2015,7,4,Mango,DARBHANGA,"Plant Protection",KHARIF,HORTICULTURE,BIHAR,"Gaint mealybug in mango","chlopyriphos 20EC 25 mll",26.083,86.0325
"SHIVAJI NAGAR",Fruits,2015,2,23,Mango,SAMASTIPUR,"Plant Protection",KHARIF,HORTICULTURE,BIHAR,"mealybug in mango","spray Spraying of Chlorpyriphos 20 EC 25mllit of water",25.7748,85.8672
SARAIRANJAN,Fruits,2015,8,6,Mango,SAMASTIPUR,"Plant Protection",KHARIF,HORTICULTURE,BIHAR,"Gaint mealybug","chlopyriphos 20EC 25 mllit water",25.7748,85.8672
"SAHEBPUR KAMAL",Fruits,2015,3,4,Mango,BEGUSARAI,"Plant Protection",KHARIF,HORTICULTURE,BIHAR,"mealybug in mango","Spray cloropyriphos  2 ml in 1 litre of water",25.5125,86.0883
PIRPAINTI,Fruits,2015,2,11,Mango,BHAGALPUR,"Plant Protection",KHARIF,HORTICULTURE,BIHAR,"mealybug in mango","Spraying of Chlorpyriphos 20 EC 25mllit of water",25.2861,87.1304
RANGRACHOWK,Fruits,2015,5,2,Mango,BHAGALPUR,"Plant Protection",JAYAD,HORTICULTURE,BIHAR,"Gaint mealybug","chlopyriphos 20EC 25 mll",25.2861,87.1304
NAUHATTA,Fruits,2015,3,16,Mango,SAHARSA,"Plant Protection",nan,HORTICULTURE,BIHAR,"MEALYBUG ATTACK","SPRAY WITH METASYSTOX  2 ML LIT OF WATER",25.8331,86.6144
"SOUR BAZAR",Fruits,2015,4,13,Mango,SAHARSA,"Plant Protection",RABI,HORTICULTURE,BIHAR,"Gaint mealybug","chlopyriphos 20EC 25 mll",25.8331,86.6144
PATARGHAT,Fruits,2015,4,15,Mango,SAHARSA,"Plant Protection",JAYAD,HORTICULTURE,BIHAR,"Gaint mealybug","chlopyriphos 20EC 25 mllit water",25.8331,86.6144
BAISA,Fruits,2015,12,4,Mango,PURNEA,"Plant Protection",RABI,HORTICULTURE,BIHAR,"Gaint mealybug","chlopyriphos 20EC 25 mllIT WATER",25.7774,87.4731
KAPRI,Fruits,2015,12,8,Mango,ARWAL,"Plant Protection",RABI,HORTICULTURE,BIHAR,"Gaint mealybug","SPRAY chlopyriphos 20EC 2MLLIT WATER",25.1813,84.6597
"SRI MADHOPUR",Fruits,2015,2,16,Mango,SIKAR,"Plant Protection",RABI,HORTICULTURE,RAJASTHAN,"TELL ME CONTROL OF MEALYBUG IN MANGO","SPRAY OF DIMETHOATE  30 EC 2 ML PER LITER WATER",27.6625,75.028
KANDI,Fruits,2015,12,27,Mango,MURSHIDABAD,"Plant Protection",RABI,HORTICULTURE,"WEST BENGAL","ASKING ABOUT CONTROL OF MANGO MEALYBUG","RECOMMENDED FOR PHORATE 10 G  20 GMPLANT",24.1746,88.2721
CHINSURAH-MAGRAH,Fruits,2015,9,20,Mango,HOOGHLY,"Plant Protection",KHARIF,HORTICULTURE,"WEST BENGAL","MANGO MEALYBUG IN MANGO SEEDLINGS","RECOMMENDED  FOR SPRAY DIMETHOATE 30EC  2 ML  LIT OF WATER 12-15 DAYS INTERVAL",22.9099,88.0121
"JAMAL PUR",Fruits,2015,10,11,Mango,BARDDHAMAN,"Plant Protection",KHARIF,HORTICULTURE,"WEST BENGAL","CONTROL OF MEALYBUG IN MANGO","RECOMMENDED FOR SPRAY  CHLOROPYRIPHOS 20 EC  25 ML   LIT OF WATER",23.25,87.75
DELHI,Fruits,2015,3,21,Mango,"EAST DELHI Preet Vihar","Plant Protection",JAYAD,HORTICULTURE,DELHI,"MEALYBUG IN MANGO","SPRAY OF TRIZOPHOS 40 EC 2 ML PER LITER WATER",28.6413,77.3095
DANIYAWAN,Fruits,2016,8,7,Mango,PATNA,"Plant Protection",KHARIF,HORTICULTURE,BIHAR,"ATTACK OF MEALYBUG IN MANGO","SPRAY ROGOR  2 ML  LIT OF WATER",25.6093,85.1235
CHENARI,Fruits,2016,5,18,Mango,ROHTAS,"Plant Protection",nan,HORTICULTURE,BIHAR,"Gaint mealybug: Drosicha mangiferae","apply methyl parathion1mllit chlopyriphos 20EC 25 mll",24.9394,84.0197
LADANIA,Fruits,2016,5,12,Mango,MADHUBANI,"Plant Protection",JAYAD,HORTICULTURE,BIHAR,"Gaint mealybug","chlopyriphos 20EC 2mllitre water",26.3503,86.2296
PUSA,Fruits,2016,1,27,Mango,SAMASTIPUR,"Plant Protection",RABI,HORTICULTURE,BIHAR,"Gaint mealybug","chlopyriphos 20EC 25 mllITRE  WATER",25.7748,85.8672
ROSERA,Fruits,2016,2,8,Mango,SAMASTIPUR,"Plant Protection",RABI,HORTICULTURE,BIHAR,"mango mealybug","spray chlopyriphos 20EC 25 mllitre of water",25.7748,85.8672
MOHIUDDINAGAR,Fruits,2016,3,18,Mango,SAMASTIPUR,"Plant Protection",JAYAD,HORTICULTURE,BIHAR,"Gaint mealybug","chlopyriphos 20EC 1 mllitre water",25.7748,85.8672
MOHIUDDINAGAR,Fruits,2016,3,18,Mango,SAMASTIPUR,"Plant Protection",JAYAD,HORTICULTURE,BIHAR,"Gaint mealybug","chlopyriphos 20EC 1mllitre water",25.7748,85.8672
WARISNAGAR,Fruits,2016,8,6,Mango,SAMASTIPUR,"Field Preparation",KHARIF,HORTICULTURE,BIHAR,"Gaint mealybug attack on mango","Spray Chlorpyriphos  2 ml in 1 litre of water",25.7748,85.8672
COLGONG,Fruits,2016,3,27,Mango,BHAGALPUR,"Plant Protection",JAYAD,HORTICULTURE,BIHAR,"Gaint mealybug:","spray chlopyriphos 20EC 2 mllitre water",25.2861,87.1304
SALKHUA,Fruits,2016,3,3,Mango,SAHARSA,"Plant Protection",RABI,HORTICULTURE,BIHAR,"Gaint mealybug","If necessary apply methyl parathion1mllit or  chlopyriphos 20EC 25 mllitre water",25.8331,86.6144
KONGANAPURAM,Fruits,2016,2,27,Mango,SALEM,"Plant Protection",RABI,HORTICULTURE,TAMILNADU,"Gaint mealybug in mango","recommended for the spray  Dimethoate  2ml lit of water",11.647,78.2107
ALANGULAM,Fruits,2016,3,7,Mango,TIRUNELVELI,"Plant Protection",RABI,HORTICULTURE,TAMILNADU,"asking about mealybug management in mango","recommended for profenophos 2 ml  acephate 1 gram 1 litre of water",8.72031,77.7075
MUZAFFARABAD,Fruits,2016,4,22,Mango,SAHARANPUR,"Plant Protection",JAYAD,HORTICULTURE,"UTTAR PRADESH","aam me mealybug lag rahe hai","Monocrotophos 36 SL 2mlliter  pani me milaker spray kare",29.9857,77.5041
SARSAWAN,Fruits,2016,5,5,Mango,SAHARANPUR,"Plant Protection",JAYAD,HORTICULTURE,"UTTAR PRADESH","Gaint mealybug Drosicha mangiferae in mango ","chlopyriphos 20EC 25 mililiter ke hisab se ghol bana kar spre kren",29.9857,77.5041
BARKHERA,Fruits,2016,4,10,Mango,PILIBHIT,"Plant Protection",JAYAD,HORTICULTURE,"UTTAR PRADESH",mealybuginmango,"Chlorpyriphos 20 EC 25mllitre ki dar se chidkaav kare",28.4947,80.1076
GOLA,Fruits,2016,10,13,Mango,GORAKHPUR,"Cultural Practices",JAYAD,HORTICULTURE,"UTTAR PRADESH","mealybug control in mango ","Common around the trunk of the deep plowing 25 cm of stem 400 gauge polythene Cadi Bade strip and strip from the top and bottom edges twine Badkr seal at the lower end by Greece Methyl 2 percent Parathian powder 200 g  tree trunk sprinkle around it If the insect tree climbed 004 per cent Monokrotofas 1 ml  Liter of water or Daimethoatt 006 per cent 02 ml  L Of water at intervals of 15 days to spray",26.6678,83.3642
JAYPUR,Fruits,2016,2,26,Mango,BANKURA,"Plant Protection",RABI,HORTICULTURE,"WEST BENGAL","CONTROL OF MEALYBUG IN MANGO","RECOMMENDED FOR SPRAY  ACEPHATE 75 SP  15 GM  2 LIT OF WATER",23.1324,87.2082
TALDANGRA,Fruits,2016,6,2,Mango,BANKURA,"Plant Protection",KHARIF,HORTICULTURE,"WEST BENGAL","CONTROL OF MEALYBUG IN MANGO","RECOMMENDED FOR SPRAY DIMETHOATE 30EC  2 ML  LITOF WATER",23.1324,87.2082
TAPAN,Fruits,2016,5,26,Mango,"South DINAJPUR","Plant Protection",JAYAD,HORTICULTURE,"WEST BENGAL","CONTROL OF MEALYBUG IN MANGO","RECOMMENDED FOR SPRAY DICHLORVOS 76  EC 15 ML  2 LIT OF WATEROR SPRAY DIMETHOATE 30 EC  2 ML   LIT OF WATER",22.9965,87.6856
SOMALA,Fruits,2017,7,4,Mango,CHITTOOR,"Plant Protection",nan,HORTICULTURE,"ANDHRA PRADESH","MEALYBUG MANAGEMENT IN MANGO","RECOMMENDED TO USE OXY DEMETON METHYL  2 ML PER LITRE",13.2026,79.0032
KALAMPUR,Fruits,2017,1,7,Mango,KALAHANDI,"Plant Protection",nan,HORTICULTURE,ODISHA,"MANGO MEALYBUG","SPRAY ROGOR 2ML PER LITER OF WATER",19.8266,83.0409
BHUBANESWAR,Fruits,2017,2,8,Mango,KHORDHA,"Plant Protection",nan,HORTICULTURE,ODISHA,"mealybug in mango","apply 30 ml malathion in 10 liter water for mealybug in mango",20.0538,85.5023
VILLIVAKKAM,Fruits,2017,5,22,Mango,THIRUVALLUR,"Nutrient Management",JAYAD,HORTICULTURE,TAMILNADU,"Asking about Guava  Mealybug management","Recommended for Remove the alternate weeds hosts  Monitor the incidence regularly and look for crawler emergence  Take up the management at intial stage to get maximum control  Use of Encyrtid parasitoids Acerophaguspapayae 100 per village against Paracoccusmarginatus  Spray Chlorpyriphos 20 EC Perfban Terminator2ml  lit of water",13.2538,80.0563
CHEYYAR,Fruits,2017,5,23,Mango,TIRUVANNAMALAI,"Plant Protection",JAYAD,HORTICULTURE,TAMILNADU,"asking about mango mealybug management","recommended for spray daimethoiate - 2 ml lit of water",12.4289,78.9992
BILASPUR,Fruits,2017,6,17,Mango,RAMPUR,"Plant Protection",KHARIF,HORTICULTURE,"UTTAR PRADESH","mealybug problem in mango ","spray of chlopyriphos 20 EC 25 mlliter of water",28.7935,79.1846
"DESAI DEORIA",Fruits,2017,3,16,Mango,DEORIA,"Plant Protection",RABI,HORTICULTURE,"UTTAR PRADESH","mango mealybug ","spray of chlopyriphos 20 EC 25 mlliter of water",26.424,83.7639
MAL,Fruits,2017,4,5,Mango,LUCKNOW,"Plant Protection",JAYAD,HORTICULTURE,"UTTAR PRADESH","Gaint mealybug in mango","Spray methyl parathion1mllit",26.8381,80.9346
RAINA-I,Fruits,2017,4,22,Mango,BARDDHAMAN,"Plant Protection",JAYAD,HORTICULTURE,"WEST BENGAL","ASKING ABOUT CONTROL OF MEALYBUG IN MANGO","RECOMMENDED FOR SPRAY   THIAMETHOXAM 25 WG  1 GM  2 LIT OF WATER",23.25,87.75
HALDIA,Fruits,2017,3,26,Mango,"EAST MEDINIPUR","Plant Protection",KHARIF,HORTICULTURE,"WEST BENGAL","ASKED ABOUT Mealybug IN MANGO PLANT","RECOMMENDED FOR SPRAY Buprofezin 25 SC  1 MLLIT OF WATER",22.2906,87.9159
TAMLUK,Fruits,2017,4,23,Mango,"EAST MEDINIPUR","Plant Protection",nan,HORTICULTURE,"WEST BENGAL","CONTROL OF MEALYBUG IN MANGO","RECOMMENDED FOR SPRAY  CHLOROPYRIPHOS 20 EC  25 ML   LIT OF WATER",22.2906,87.9159
NAUBATPUR,Fruits,2018,2,28,Mango,PATNA,"Plant Protection",nan,HORTICULTURE,BIHAR,"mealybug attack","Spraying of Chlorpyriphos 20 EC 25mllit",25.6093,85.1235
SALEPUR,Fruits,2018,2,22,Mango,CUTTACK,"Bio-Pesticides and Bio-Fertilizers",nan,HORTICULTURE,ODISHA,"mealybug in mango","Spray 1ml imidacloprid per 3ltr water",20.4686,85.8792
PIPILI,Fruits,2018,11,15,Mango,PURI,nan,0,HORTICULTURE,ODISHA,"MEALYBUG IN MANGO","RECOMMENDED TO SPRAY DICHLORVOS 76EC  2ML1 LITER OF WATER FOR CONTROL OF MEALYBUG IN MANGO",19.8076,85.8253
DHANKAUDA,Fruits,2018,5,29,Mango,SAMBALPUR,"Plant Protection",nan,HORTICULTURE,ODISHA,"GIANT MEALYBUG CONTROL IN MANGO","APPLY CHLOROPYRIPHUS 2ML 1 LTR OF WATER",21.5571,84.1529
BEGUNIA,Fruits,2018,10,24,Mango,KHORDHA,nan,0,HORTICULTURE,ODISHA,"MEALYBUGS IN MANGO","MEALYBUGS IN MANGO- RECOMMENDED TO SPRAY DIMETHOATE 30 EC ROGER 2 ml1 LITER WATER",20.0538,85.5023
KATPADI,Fruits,2018,8,2,Mango,VELLORE,"Plant Protection",KHARIF,HORTICULTURE,TAMILNADU,"asking about mango mealybug management","recommended for spray propinophos - 2 ml lit of water",12.9022,79.0611
VELLORE,Fruits,2018,12,3,Mango,VELLORE,"Cultural Practices",0,HORTICULTURE,TAMILNADU,"Asking about Mealybug parasitoid availability","Recommended for Agricultural Research Station phone number:0416-2273221",12.9022,79.0611
RAJAPALAIYAM,Fruits,2018,3,28,Mango,VIRUDHUNAGAR,"Agriculture Mechanization",RABI,HORTICULTURE,TAMILNADU,"Asking about mealybug parasitoid availability","Recommended for phone number:04632-22052204632-220533",9.49263,77.8632
"PARAS RAMPUR",Fruits,2018,4,4,Mango,BASTI,"Plant Protection",JAYAD,HORTICULTURE,"UTTAR PRADESH","mealybug in mango ","spray of Triazophos 35 Deltamethrin 1 EC 2 mililiter of water",26.8387,82.5351
"PARAS RAMPUR",Fruits,2018,4,9,Mango,BASTI,"Plant Protection",JAYAD,HORTICULTURE,"UTTAR PRADESH","Mango mealybug problem of mango","Monocrotophos 36 SL 2 ml  liter pani ka ghol banaker spray kare",26.8387,82.5351
MIANGANJ,Fruits,2018,3,28,Mango,UNNAO,"Plant Protection",JAYAD,HORTICULTURE,"UTTAR PRADESH","Gaint mealybug in mango ","Dear farmer use to Chlorpyriphos 20 EC 2mlliter water splash in the field",26.5673,80.6198
PANIYARA,Fruits,2018,5,24,Mango,MAHARAHGANJ,"Plant Protection",JAYAD,HORTICULTURE,"UTTAR PRADESH","Gaint mealybug insect problem in Mango plant","Chlorpyriphos 20 EC 03 ml  litre pani ke sath milaakar spray kare",27.1303,80.8597
KETUGRAMI,Fruits,2018,3,7,Mango,BARDDHAMAN,"Plant Protection",RABI,HORTICULTURE,"WEST BENGAL","CONTROL OF MEALYBUG IN MANGO","RECOMMENDED FOR SPRAY  DIMETHOATE 30 EC  2 ML   LIT OF WATER",23.25,87.75
ONGOLE,Fruits,2019,3,22,Mango,PRAKASAM,"Plant Protection",nan,HORTICULTURE,"ANDHRA PRADESH","MEALYBUG MANAGEMENT",nan,15.6643,79.4733
AMB,Fruits,2019,6,19,Mango,UNA,"Plant Protection",nan,HORTICULTURE,"HIMACHAL PRADESH","Information regarding control of mealybug in mango ",nan,31.5835,76.2351
TIRURANGADI,Fruits,2019,2,14,Mango,MALAPPURAM,"Plant Protection",nan,HORTICULTURE,KERALA,"mealybug attack in mango","for mango recommended to spray  QUINALPHOS 25 EC 2 ML PER LITRE WATER",11.1068,76.11
HOSHANGABAD,Fruits,2019,5,16,Mango,HOSHANGABAD,"Plant Protection",nan,HORTICULTURE,"MADHYA PRADESH","Farmer want to know information about control of Mealybug on Mango tree ",nan,22.7546,77.7198
REWA,Fruits,2019,2,23,Mango,REWA,"Plant Protection",nan,HORTICULTURE,"MADHYA PRADESH","Farmer need information regarding control measures of mealybug attack in mango plant",nan,24.7561,81.3811
SOHAGPUR,Fruits,2019,3,2,Mango,SHAHDOL,"Plant Protection",nan,HORTICULTURE,"MADHYA PRADESH","Framer wants know information about control mealybug in mango fruit",nan,23.3002,81.3648
BASTA,Fruits,2019,3,28,Mango,BALASORE,"Plant Protection",nan,HORTICULTURE,ODISHA,"Giant mealybug in mango",nan,21.5006,86.9199
"MADANPUR    RAMPUR",Fruits,2019,3,3,Mango,KALAHANDI,"Plant Protection",nan,HORTICULTURE,ODISHA,"MEALYBUG ATTACK IN MANGO",nan,19.8266,83.0409
BONAIGARH,Fruits,2019,8,7,Mango,SUNDARGARH,"Plant Protection",nan,HORTICULTURE,ODISHA,"Management of mealybug in mango",nan,22.0605,83.9359
DASUYA,Fruits,2019,7,12,Mango,HOSHIARPUR,"Plant Protection",nan,HORTICULTURE,PUNJAB,"Information regarding mango mealybug",nan,31.6093,75.846
SIKRAI,Fruits,2019,5,31,Mango,DAUSA,"Plant Protection",nan,HORTICULTURE,RAJASTHAN,"Farmer wants to know information about control  of mealybug in mango crop",nan,26.8049,76.4437
NAGAPPATTINAM,Fruits,2019,6,16,Mango,NAGAPATTINAM,"Plant Protection",nan,HORTICULTURE,TAMILNADU,"Asking about Mealybug management in Mango plant ",nan,10.6026,79.7619
NAGAPPATTINAM,Fruits,2019,6,16,Mango,NAGAPATTINAM,"Plant Protection",nan,HORTICULTURE,TAMILNADU,"Asking about Mealybug management in Mango plant ",nan,10.6026,79.7619
MIRGANJ,Fruits,2019,2,26,Mango,BAREILLY,"Plant Protection",nan,HORTICULTURE,"UTTAR PRADESH","Mealybugs control in Mango plant",nan,28.4582,79.4047
BANDA,Fruits,2019,1,28,Mango,SHAHJAHANPUR,"Plant Protection",nan,HORTICULTURE,"UTTAR PRADESH","mealybug control in mango crop ","Dear farmer use to  Dimethoate 30 EC 2ml liter water splash in the field",27.9129,79.7476
BANDA,Fruits,2019,3,16,Mango,SHAHJAHANPUR,"Plant Protection",nan,HORTICULTURE,"UTTAR PRADESH","Mango mealybug managment in Mango crop ",nan,27.9129,79.7476
BILASPUR,Fruits,2019,3,29,Mango,RAMPUR,"Plant Protection",nan,HORTICULTURE,"UTTAR PRADESH","mealybug problem in mango tree",nan,28.7935,79.1846
PATARA,Fruits,2019,12,28,Mango,"KANPUR CITY","Plant Protection",nan,HORTICULTURE,"UTTAR PRADESH","Give information about the control of Mealybug insect in mango tree  ",nan,26.4551,80.3512
PHULPUR,Fruits,2019,1,30,Mango,ALLAHABAD,"Plant Protection",nan,HORTICULTURE,"UTTAR PRADESH","The mango plant has a problem of mealybug pest","kisan bhai aap apne aam ke paudhe par dimethoate 30 EC 2ml liter pani ki dar se sprey kre",25.4381,81.8338
PHULPUR,Fruits,2019,1,30,Mango,ALLAHABAD,"Plant Protection",nan,HORTICULTURE,"UTTAR PRADESH","The mango plant has a problem of mealybug pest","kisan bhai aap apne aam ke paudhe par dimethoate 30 EC 2ml liter pani ki dar se sprey kre",25.4381,81.8338
SIKRARA,Fruits,2019,3,12,Mango,JAUNPUR,"Plant Protection",nan,HORTICULTURE,"UTTAR PRADESH","Control for Mealybug In Mango Plant ",nan,25.7967,82.4889
"SHAH GANJ",Fruits,2019,6,18,Mango,JAUNPUR,"Plant Protection",nan,HORTICULTURE,"UTTAR PRADESH","Mealybug control in mango   ",nan,25.7967,82.4889
MANIHARI,Fruits,2019,4,28,Mango,GHAZIPUR,"Plant Protection",nan,HORTICULTURE,"UTTAR PRADESH","Gaint mealybug in mango crop ",nan,25.6035,83.5076
GOLA,Fruits,2019,12,14,Mango,GORAKHPUR,"Plant Protection",nan,HORTICULTURE,"UTTAR PRADESH","Information about Gaint mealybug control in Mango plant",nan,26.6678,83.3642
RUDRAPUR,Fruits,2019,8,12,Mango,DEORIA,"Plant Protection",nan,HORTICULTURE,"UTTAR PRADESH","Mealybug Problem in Mango tree",nan,26.424,83.7639
BAHADURPUR,Fruits,2019,3,17,Mango,BASTI,"Plant Protection",nan,HORTICULTURE,"UTTAR PRADESH","Control for Mealybug in Mango Plant",nan,26.8387,82.5351
MAL,Fruits,2019,4,12,Mango,LUCKNOW,"Plant Protection",nan,HORTICULTURE,"UTTAR PRADESH","Mango mealybug attack in mango plant ",nan,26.8381,80.9346
MAL,Fruits,2019,4,20,Mango,LUCKNOW,"Plant Protection",nan,HORTICULTURE,"UTTAR PRADESH","Mealybug control in mango ",nan,26.8381,80.9346
MALIHABAD,Fruits,2019,5,3,Mango,LUCKNOW,"Plant Protection",nan,HORTICULTURE,"UTTAR PRADESH","Mealybug control in mango ",nan,26.8381,80.9346
MALIHABAD,Fruits,2019,5,7,Mango,LUCKNOW,"Plant Protection",nan,HORTICULTURE,"UTTAR PRADESH","Insect Gaint mealybug control in mango crop ",nan,26.8381,80.9346
KOTHAWAN,Fruits,2019,3,21,Mango,HARDOI,"Plant Protection",nan,HORTICULTURE,"UTTAR PRADESH","Mango mealybug managment ",nan,27.337,80.0998
TARUN,Fruits,2019,4,1,Mango,FAIZABAD,"Plant Protection",nan,HORTICULTURE,"UTTAR PRADESH","Gaint mealybug in mango crop ",nan,26.7789,82.1427
CHHAPIA,Fruits,2019,4,4,Mango,GONDA,"Plant Protection",nan,HORTICULTURE,"UTTAR PRADESH","Mealybug control in Mango plants ",nan,27.1104,81.9239
KAISARGANJ,Fruits,2019,3,30,Mango,BAHRAICH,"Plant Protection",nan,HORTICULTURE,"UTTAR PRADESH","mealybug problem in mango tree",nan,27.7344,81.4765
JOYA,Fruits,2019,4,27,Mango,"JYOTIBA PHULE NAGAR","Plant Protection",nan,HORTICULTURE,"UTTAR PRADESH","about information for the control of mealybug in mango garden",nan,28.865,78.4696
"NATH NAGAR",Fruits,2019,4,1,Mango,"SANT KABIR NAGAR","Plant Protection",nan,HORTICULTURE,"UTTAR PRADESH","Mealybug control in Mango Plants ",nan,26.7551,83.0399
PACHPEDWA,Fruits,2019,3,23,Mango,BALRAMPUR,"Plant Protection",nan,HORTICULTURE,"UTTAR PRADESH","Control of Mango mealybug ",nan,27.4477,82.3956
TIRURANGADI,Fruits,2020,1,30,Mango,MALAPPURAM,"Plant Protection",nan,HORTICULTURE,KERALA,"mealybug attack ","Recommended to spray dimethoate 2ml per litre of water against mealybug attack ",11.1068,76.11
HOSHANGABAD,Fruits,2020,3,4,Mango,HOSHANGABAD,"Plant Protection",nan,HORTICULTURE,"MADHYA PRADESH","farmer want to know information about  in control Mealybug   ","             7-8           ",22.7546,77.7198
MANDSAUR,Fruits,2020,2,5,Mango,MANDSAUR,"Plant Protection",nan,HORTICULTURE,"MADHYA PRADESH","farmer want to know information about how to control  Mealybug in  mango plant ","    dimethoate 30             ",24.2628,75.3857
MANDSAUR,Fruits,2020,2,5,Mango,MANDSAUR,"Plant Protection",nan,HORTICULTURE,"MADHYA PRADESH","farmer wnt to know about how to control  Mealybug in mango plant ","    dimethoate 30             ",24.2628,75.3857
BEHROR,Fruits,2020,2,27,Mango,ALWAR,"Plant Protection",nan,HORTICULTURE,RAJASTHAN,"TELL ME CONTROL OF mealybug IN MANGO "," 50  4          ",27.414,76.617
VELLORE,Fruits,2020,12,29,Mango,VELLORE,"Plant Protection",nan,HORTICULTURE,TAMILNADU,"Asking about mango mealybug managment",":        :   3     1        ",12.9022,79.0611
ANNUR,Fruits,2020,1,21,Mango,COIMBATORE,"Plant Protection",nan,HORTICULTURE,TAMILNADU,"Asked about mealybug management in mango",":    6      : 217    3     25     6    2    ",11.0018,76.9628
CHENNAI,Fruits,2020,12,16,Mango,CHENNAIMADRAS,"Plant Protection",nan,HORTICULTURE,TAMILNADU,"Asked about prevent mealybug management in mango",":      :         2          ",10.9094,78.3665
CHENNAI,Fruits,2020,12,16,Mango,CHENNAIMADRAS,"Plant Protection",nan,HORTICULTURE,TAMILNADU,"Asked about prevent mealybug management in mango",":      :        2    ",10.9094,78.3665
MORADABAD,Fruits,2020,3,6,Mango,MORADABAD,"Plant Protection",nan,HORTICULTURE,"UTTAR PRADESH","Gaint mealybug in mango","      30  2        ",28.8797,78.8095
HANDIA,Fruits,2020,2,1,Mango,ALLAHABAD,"Plant Protection",nan,HORTICULTURE,"UTTAR PRADESH","information about of control of Mealybug problem ","        36  300    200   ",25.4381,81.8338
BARAGAON,Fruits,2020,3,4,Mango,VARANASI,"Plant Protection",nan,HORTICULTURE,"UTTAR PRADESH","Information about  mealybug control in mango plants   ","           36  sl  2 ml           ",25.3356,83.0076
HANUMANGANJ,Fruits,2020,1,10,Mango,BALLIA,"Plant Protection",nan,HORTICULTURE,"UTTAR PRADESH","how to control mealybug in mango plant","   25 EC 2               ",25.875,84.121
BASTI,Fruits,2020,3,16,Mango,BASTI,"Plant Protection",nan,HORTICULTURE,"UTTAR PRADESH","Give information about the control of mealybug insect in mango plant ","                12   63  400          6   150-200        ",26.8387,82.5351
"RAMIA BEHAR",Fruits,2020,8,20,Mango,KHERI,"Plant Protection",nan,HORTICULTURE,"UTTAR PRADESH","Give information about Mango Mealybug insect problem in Mango plants ","       75   2          ",28.1167,80.7167
MASODHA,Fruits,2020,1,31,Mango,FAIZABAD,"Plant Protection",nan,HORTICULTURE,"UTTAR PRADESH","Control for mealybugs in mango plant","        36 SL  2 ml              ",26.7789,82.1427
"JAHANGIR GANJ",Fruits,2020,3,5,Mango,"AMBEDKAR NAGAR","Plant Protection",nan,HORTICULTURE,"UTTAR PRADESH","Information about management of mango mealybug ","       30  15           ",26.4046,82.6065
BALRAMPUR,Fruits,2020,7,22,Mango,BALRAMPUR,"Plant Protection",nan,HORTICULTURE,"UTTAR PRADESH","Mealybug insect problem in mango plant","      30  2          ",27.4477,82.3956
MEMARI-1,Fruits,2020,2,29,Mango,BARDDHAMAN,"Plant Protection",nan,HORTICULTURE,"WEST BENGAL","ASKING ABOUT CONTROL OF MEALYBUG IN MANGO  "," IMIDACLOPRID 178 SL            I",23.25,87.75
LABPUR,Fruits,2020,12,1,Mango,BIRBHUM,"Plant Protection",nan,HORTICULTURE,"WEST BENGAL","ASKING ABOUT CONTROL OF MEALYBUG IN MANGO","SPRAY   BUPROFEZIN 25 SC  1 ML   LIT OF WATER",24.0622,87.6983
MUTHUKUR,Fruits,2021,4,18,Mango,NELLORE,"Plant Protection",nan,HORTICULTURE,"ANDHRA PRADESH","mealybug  management in mango","-RECOMMENDED TO SPRAY DICHLORVOS NUVON  250 ML  200 LITRES OF WATER   ACRE     250      200       ",14.4494,79.9874
ASSANDH,Fruits,2021,10,22,Mango,KARNAL,"Plant Protection",nan,HORTICULTURE,HARYANA,"information regarding to control of mealybug in mango plant ","            3  5          ",29.7256,76.9107
BHALWAL,Fruits,2021,3,13,Mango,JAMMU,"Plant Protection",nan,HORTICULTURE,"JAMMU AND KASHMIR","Farmer asked the query regarding mango mealybug ","--t is advised to the farmer treat the tree basins and the area around mango and litchi trees in feb march with carbaryl  400-500 grams per tree or treat the basins with carbofuran 10G granules  200gtreeApply around the tree trunk alkathene bands 15-20cm wide about 12 mtr above the groundand spray the tree with Dichlorvos  2ml per liter of water or spray Dimethoate 2ml per liter of water",32.7186,74.8581
YEOLA,Fruits,2021,3,6,Mango,NASIK,"Plant Protection",nan,HORTICULTURE,MAHARASHTRA,"Farmer ask about control of mealybug attack on mango fruit plant","                                      ",19.9613,73.8317
KUMBAKONAM,Fruits,2021,4,13,Mango,THANJAVUR,"Nutrient Management",nan,HORTICULTURE,TAMILNADU,"Asked about mango mealybug management",":      :   2   1     ",10.659,79.2014
BUDHANA,Fruits,2021,4,26,Mango,MUZAFFARNAGAR,"Plant Protection",nan,HORTICULTURE,"UTTAR PRADESH","Information about Gaint mealybug management in mango plant","   Chlopyriphos 20EC 25 ml          ",29.4497,77.7429
MEERUT,Fruits,2021,3,22,Mango,MEERUT,"Plant Protection",nan,HORTICULTURE,"UTTAR PRADESH","Give information about the control of mealybug insect in Mango plant ","             30  2        ",29.0019,77.768
DIBAI,Fruits,2021,2,3,Mango,BULANDSHAHAR,"Plant Protection",nan,HORTICULTURE,"UTTAR PRADESH","information about mealybug in mango plant","--  76 EC 2ml      ",28.5247,77.5997
"MUNDA PANDEY",Fruits,2021,3,26,Mango,MORADABAD,"Plant Protection",nan,HORTICULTURE,"UTTAR PRADESH","Mealybug problem in mango plant","      30  2         ",28.8797,78.8095
KAIMGANJ,Fruits,2021,3,8,Mango,FARRUKHABAD,"Cultural Practices",nan,HORTICULTURE,"UTTAR PRADESH","Mealybug of Mango Crop ","     20  25ml       ",27.4362,79.4895
BISWAN,Fruits,2022,1,17,Mango,SITAPUR,"Plant Protection",nan,HORTICULTURE,"UTTAR PRADESH","Information about mango plants to protect against mealybug pests","                     ",27.5027,80.8335
WALAJAPET,Fruits,2022,2,27,Mango,VELLORE,"Plant Protection",nan,HORTICULTURE,TAMILNADU,"Asking about mealybug management in mango"," :      :      2      ",12.9022,79.0611
DINDIGUL,Fruits,2022,2,16,Mango,DINDIGUL,"Plant Protection",nan,HORTICULTURE,TAMILNADU,"Asking about Mealybug management for Custard AppleGuava MangoAmla Papaya "," :           :    3     1  1    ",10.4257,77.8157
BISALPUR,Fruits,2022,2,4,Mango,PILIBHIT,"Plant Protection",nan,HORTICULTURE,"UTTAR PRADESH","information about Control for Mealybug in Mango Plant  ","        36 SL  2 ML             ",28.4947,80.1076
HARRAIYA,Fruits,2022,2,19,Mango,BASTI,"Plant Protection",nan,HORTICULTURE,"UTTAR PRADESH","Information about the diagnosis of the problem of mealybug pests in mango and guava plants"," -             Dimethoate 30  EC 2 ml           ",26.8387,82.5351
"MAYA BAZAR",Fruits,2022,2,6,Mango,FAIZABAD,"Vegetative Propagation and Tissue Culture",nan,HORTICULTURE,"UTTAR PRADESH","information about Control for Mealybug in Mango Plant  ","       Imidacloprid 178  SL  1 ML  2            ",26.7789,82.1427
CHAIL,Fruits,2022,2,17,Mango,KAUSHAMBI,"Plant Protection",nan,HORTICULTURE,"UTTAR PRADESH","Information about of mealybug control in mango Plant","   Dimethoate 30  EC 400 ml   200           ",25.5342,81.4494
KHALILABAD,Fruits,2022,2,24,Mango,"SANT KABIR NAGAR","Plant Protection",nan,HORTICULTURE,"UTTAR PRADESH","information about Control For Mealybug in Mango Plant  ","        36 SL  2          ",26.7551,83.0399
GADARPUR,Fruits,2022,2,11,Mango,"UDHAM SINGH NAGAR","Plant Protection",nan,HORTICULTURE,UTTARAKHAND,"Mealybug in mango","  :                                        25    400                                     2      3        ",29.0478,79.4326
BHUTA,Fruits,2022,3,8,Mango,BAREILLY,"Plant Protection",nan,HORTICULTURE,"UTTAR PRADESH","Information about of mealybug control in mango tree","    30 EC  400     180        ",28.4582,79.4047
SAIDPUR,Fruits,2022,3,21,Mango,GHAZIPUR,"Plant Protection",nan,HORTICULTURE,"UTTAR PRADESH","Information about mealybug control in mango  ","     25  EC  2 ml          ",25.6035,83.5076
TARWA,Fruits,2022,3,29,Mango,AZAMGARH,"Plant Protection",nan,HORTICULTURE,"UTTAR PRADESH","Information about management of mealybug  ","   30 EC 2ml           ",26.0236,83.0293
AURAS,Fruits,2022,3,6,Mango,UNNAO,"Plant Protection",nan,HORTICULTURE,"UTTAR PRADESH","information about Gaint mealybug disease control in mango fruits crop  ","     -  20    - 20 ML   15        ",26.5673,80.6198
HASANGANJ,Fruits,2022,3,30,Mango,UNNAO,"Plant Protection",nan,HORTICULTURE,"UTTAR PRADESH","information about Control Mealybugs in Mango Plant  ","       Dimethoate 30  EC 2    80   2          ",26.5673,80.6198
SATAON,Fruits,2022,3,4,Mango,RAEBARELI,"Plant Protection",nan,HORTICULTURE,"UTTAR PRADESH","information about Control For Mealybugs in Mango plant  ","       Dimethoate 30  EC  2    80  2          ",26.2087,81.2186
KADIPUR,Fruits,2022,3,20,Mango,SULTANPUR,"Plant Protection",nan,HORTICULTURE,"UTTAR PRADESH","Information on Mango Mealybug insect Control","     Profenophos 50 EC 30 ml15 liter      ",26.2605,82.2381
KADIPUR,Fruits,2022,3,30,Mango,SULTANPUR,"Plant Protection",nan,HORTICULTURE,"UTTAR PRADESH","Information about mealybug control in mango  ","     25  EC  2 ml          ",26.2605,82.2381
SHIVGARH,Fruits,2022,3,23,Mango,PRATAPGARH,"Plant Protection",nan,HORTICULTURE,"UTTAR PRADESH"," Information about mealybug control in mango tree","       Quinalphos 25 EC 2ml         ",25.75,81.75
AMROHA,Fruits,2022,3,14,Mango,"JYOTIBA PHULE NAGAR","Plant Protection",nan,HORTICULTURE,"UTTAR PRADESH","information about Control For Mealybugs in Mango Plant  ","        36 SL  2 ML             ",28.865,78.4696
CHHATAPUR,Fruits,2022,4,15,Mango,SUPAUL,"Plant Protection",nan,HORTICULTURE,BIHAR,"giant mealybug","Stem with jute thread and apply a little mud of fruit tree grease on the lower edge of the bandIf necessary apply chlopyriphos 20EC 25 mll",26.2768,86.796
CHHACHHRAULI,Fruits,2022,4,15,Mango,"YAMUNA NAGAR","Bio-Pesticides and Bio-Fertilizers",nan,HORTICULTURE,HARYANA,"Information regarding control of  mango mealybug","300    25  50      50     -     -               ",30.1389,77.3011
GONDA,Fruits,2022,4,18,Mango,ALIGARH,"Plant Protection",nan,HORTICULTURE,"UTTAR PRADESH","Information about mealybug control in mango   ","     25  EC  2 ml          ",27.8761,78.1358
BARHALGANJ,Fruits,2022,4,1,Mango,GORAKHPUR,"Plant Protection",nan,HORTICULTURE,"UTTAR PRADESH"," Information about mealybug control in mango tree","       Dimethoate 30 EC 2 ml         ",26.6678,83.3642
SOHAWAL,Fruits,2022,4,7,Mango,FAIZABAD,"Plant Protection",nan,HORTICULTURE,"UTTAR PRADESH"," Information about mealybug control in mango tree","       Quinalphos 25 EC 2ml         ",26.7789,82.1427
"PURA BAZAR",Fruits,2022,4,13,Mango,FAIZABAD,"Plant Protection",nan,HORTICULTURE,"UTTAR PRADESH","Information about management of mango mealybug ","       Dimethoate 30 EC 2ml          ",26.7789,82.1427
BELSAR,Fruits,2022,4,5,Mango,GONDA,"Plant Protection",nan,HORTICULTURE,"UTTAR PRADESH","Provide about information of mealybug insect control in mango plant ","                4  200             2   400        25 EC 2 ml            ",27.1104,81.9239
TARABGANJ,Fruits,2022,4,13,Mango,GONDA,"Plant Protection",nan,HORTICULTURE,"UTTAR PRADESH","Informatation about There is a mealybug in the mango crop","    Chlorpyriphos 20 EC 25ml        15        ",27.1104,81.9239
LAKSHAMANPUR,Fruits,2022,4,6,Mango,PRATAPGARH,"Plant Protection",nan,HORTICULTURE,"UTTAR PRADESH","Information about Mango leaf hopper and Mealybug management in mango plant","  -Dimethoate 30EC 2 ml         ",25.75,81.75
BALRAMPUR,Fruits,2022,4,7,Mango,BALRAMPUR,"Plant Protection",nan,HORTICULTURE,"UTTAR PRADESH","Information about There is a mealybug in the mango crop","  Chlorpyriphos 20 EC          ",27.4477,82.3956
Sidhpura,Fruits,2022,4,3,Mango,"KANSHIRAM NAGAR","Plant Protection",nan,HORTICULTURE,"UTTAR PRADESH","There is a problem of mealybug pest on mango tree ","        25    400     -    75  SP  2          ",27.1303,80.8597
MANTESWAR,Fruits,2022,4,27,Mango,BARDDHAMAN,"Plant Protection",nan,HORTICULTURE,"WEST BENGAL","ASKING ABOUT CONTROL OF MEALYBUG IN MANGO","SPRAY   ACETAMIPRID 20 SP 1 GM5 LIT OF WATER   ",23.25,87.75
LAKSHAMANPUR,Fruits,2022,5,24,Mango,PRATAPGARH,"Plant Protection",nan,HORTICULTURE,"UTTAR PRADESH","Information about mealybug control in mango plant","    30 EC 400ml 200       ",25.75,81.75
EGRA-II,Fruits,2022,5,6,Mango,"EAST MEDINIPUR","Plant Protection",nan,HORTICULTURE,"WEST BENGAL","ASKING ABOUT CONTROL OF MEALYBUG IN MANGO","SPRAY   THIAMETHOXAM 25 WG  1 GM  2 LIT OF WATER",22.2906,87.9159
NAKUR,Fruits,2022,6,11,Mango,SAHARANPUR,"Plant Protection",nan,HORTICULTURE,"UTTAR PRADESH","Information about mealybug control in mango tree","       Quinalphos 25 EC 2 ml          ",29.9857,77.5041
SARDHANA,Fruits,2022,6,20,Mango,MEERUT,"Plant Protection",nan,HORTICULTURE,"UTTAR PRADESH","Information about control of Mealybug in Mango tree "," Chlorpyriphos 50  Cypermethrin 5EC 2 ml     ",29.0019,77.768
CHARGAWAN,Fruits,2022,6,20,Mango,GORAKHPUR,"Plant Protection",nan,HORTICULTURE,"UTTAR PRADESH","Information about mealybug control in mango tree","       Quinalphos 25 EC 2 ml         ",26.6678,83.3642
RAJGARH,Fruits,2022,8,29,Mango,MIRZAPUR,"Plant Protection",nan,HORTICULTURE,"UTTAR PRADESH","Information about mealybug management in mango plant","   - 30 EC  2 ml            ",24.9317,82.628
RAJGARH,Fruits,2022,8,29,Mango,MIRZAPUR,"Plant Protection",nan,HORTICULTURE,"UTTAR PRADESH","Information about mealybug management in mango plant","   - 30 EC  2 ml            ",24.9317,82.628
LALGANJ,Fruits,2022,10,27,Mango,MIRZAPUR,"Plant Protection",nan,HORTICULTURE,"UTTAR PRADESH","Information about the control of Mealybug in Mango tree","      25    400                                     2      3        ",24.9317,82.628
BICHHIYA,Fruits,2022,10,27,Mango,UNNAO,"Plant Protection",nan,HORTICULTURE,"UTTAR PRADESH","Information about mealybug control in papaya","       Quinalphos 25 EC 2ml        ",26.5673,80.6198
TUNDI,Fruits,2022,11,12,Mango,DHANBAD,"Plant Protection",nan,HORTICULTURE,JHARKAND,"Query of mealybugs and their management","     178 SL1ml  2         ",23.7953,86.431
NAMAGIRIPET,Fruits,2022,12,8,Mango,NAMAKKAL,"Plant Protection",nan,HORTICULTURE,TAMILNADU,"Asked about Mealybug management for Mango plant ","Query: Mealybug management for Mango plant Answer: spray neem oil 3 ml teepol 1 ml litre of water ",11.3034,78.1186
BAGHARA,Fruits,2022,12,20,Mango,MUZAFFARNAGAR,"Plant Protection",nan,HORTICULTURE,"UTTAR PRADESH","Give information about mealybug insects control in mango tree ","                            ",29.4497,77.7429
ROHTA,Fruits,2022,12,27,Mango,MEERUT,"Plant Protection",nan,HORTICULTURE,"UTTAR PRADESH","Give information about control of mealybug insects in mango tree ","                            ",29.0019,77.768
DHANIPUR,Fruits,2022,12,16,Mango,ALIGARH,"Plant Protection",nan,HORTICULTURE,"UTTAR PRADESH","Information about the control of mealybug in mango plant ","                     36 SL 2ml         ",27.8761,78.1358
"PARAS RAMPUR",Fruits,2022,12,30,Mango,BASTI,"Plant Protection",nan,HORTICULTURE,"UTTAR PRADESH","Information about of mealybug control in mango tree","       50    18  2             ",26.8387,82.5351
MAGRAURA,Fruits,2022,12,5,Mango,PRATAPGARH,"Plant Protection",nan,HORTICULTURE,"UTTAR PRADESH","Give information about control of mealybug insect in mango tree ","                            ",25.75,81.75
DEOBAND,Fruits,2023,1,29,Mango,SAHARANPUR,"Plant Protection",nan,HORTICULTURE,"UTTAR PRADESH","Information on Prevention of Mealybug in Mango","   Malathion 50 EC  2ml           ",29.9857,77.5041
DAMKHAUDA,Fruits,2023,1,3,Mango,BAREILLY,"Agriculture Mechanization",nan,HORTICULTURE,"UTTAR PRADESH","Information about to control of mealybug insect on mango tree","  Imidacloprid 178 SL  1-2          ",28.4582,79.4047
WAZIRGANJ,Fruits,2023,1,30,Mango,GONDA,"Plant Protection",nan,HORTICULTURE,"UTTAR PRADESH","Give information about the control of mealybug insects in the mango tree","                                 -15 DP 8-10                     76 EC 25 ml       ",27.1104,81.9239
EKONA,Fruits,2023,1,18,Mango,SHIVASTI,"Plant Protection",nan,HORTICULTURE,"UTTAR PRADESH","Give information about the control of mealybug insects in the mango tree","                            ",27.1303,80.8597
THAKURDWARA,Fruits,2023,2,17,Mango,MORADABAD,"Plant Protection",nan,HORTICULTURE,"UTTAR PRADESH","Give information about the control of mealybug insects in the mango tree","                               36  2           20  1  2       ",28.8797,78.8095
"PURA BAZAR",Fruits,2023,2,14,Mango,FAIZABAD,"Plant Protection",nan,HORTICULTURE,"UTTAR PRADESH","Give information about the control of mealybug insects in the mango tree","                            ",26.7789,82.1427
DHANAPUR,Fruits,2023,2,8,Mango,CHANDAULI,"Cultural Practices",nan,HORTICULTURE,"UTTAR PRADESH","Information about the control of mealybug in mango plant ","                                     ",25.1257,83.2495
KHALILABAD,Fruits,2023,2,2,Mango,"SANT KABIR NAGAR","Plant Protection",nan,HORTICULTURE,"UTTAR PRADESH","Give information about the control of mealybug insects in the mango tree","                                        36  2        ",26.7551,83.0399
SAMPATCHAK,Fruits,2023,3,15,Mango,PATNA,"Plant Protection",nan,HORTICULTURE,BIHAR," Query About Mealybugs In Mango ","  2             ",25.6093,85.1235
BISALPUR,Fruits,2023,3,3,Mango,PILIBHIT,"Plant Protection",nan,HORTICULTURE,"UTTAR PRADESH","Information about the control of mealybug on mango plant ","            36  SL  2ml   1       ",28.4947,80.1076
KAIMGANJ,Fruits,2023,3,18,Mango,FARRUKHABAD,"Plant Protection",nan,HORTICULTURE,"UTTAR PRADESH","Information about mealybug control in Mango plant","           70   40    200                                   ",27.4362,79.4895
BHANWARKOL,Fruits,2023,3,14,Mango,GHAZIPUR,"Plant Protection",nan,HORTICULTURE,"UTTAR PRADESH","Information about mealybug control in mango tree","       Quinalphos 25 EC 2ml  Carbendazim 50 WP 2           ",25.6035,83.5076
BHANWARKOL,Fruits,2023,3,21,Mango,GHAZIPUR,"Plant Protection",nan,HORTICULTURE,"UTTAR PRADESH","Information About Mealybug Pest In Mango Tree","             178   05 ml  1        ",25.6035,83.5076
KHAJNI,Fruits,2023,3,25,Mango,GORAKHPUR,"Plant Protection",nan,HORTICULTURE,"UTTAR PRADESH","Information about the control of mealybug in mango plant ","              36 SL 2 ml  1               ",26.6678,83.3642
HARRAIYA,Fruits,2023,3,21,Mango,BASTI,"Plant Protection",nan,HORTICULTURE,"UTTAR PRADESH","Information about mealybug control in mango tree","       Quinalphos 25 EC 2ml Carbendazim 50 WP 2           ",26.8387,82.5351
HARRAIYA,Fruits,2023,3,23,Mango,BASTI,"Plant Protection",nan,HORTICULTURE,"UTTAR PRADESH","Information about the control of mealybug in mango plant","       178  SL  10 ml  15      ",26.8387,82.5351
DHANAPUR,Fruits,2023,3,20,Mango,CHANDAULI,"Plant Protection",nan,HORTICULTURE,"UTTAR PRADESH","Give information about the control of mealybug insects in the mango tree","                                  36  2          ",25.1257,83.2495
KALIAGANJ,Fruits,2023,3,27,Mango,"North DINAJPUR","Plant Protection",nan,HORTICULTURE,"WEST BENGAL","asking about control of mealybug in mango","SPRAY   THIAMETHOXAM 25 WG  1 GM  2 LIT OF WATER ",22.9965,87.6856
SADAR,Fruits,2023,3,11,Mango,HAZARIBAGH,"Plant Protection",nan,HORTICULTURE,JHARKAND,"Query Of Mealybugs Management In Mango ","    05 SL  1 Ml           ",24.0867,85.4912
NARSAN,Fruits,2023,3,6,Mango,HARIDWAR,"Plant Protection",nan,HORTICULTURE,UTTARAKHAND,"mealybugs control in mango","      50  2            ",29.9384,78.1453
BHALWAL,Fruits,2023,4,4,Mango,JAMMU,"Plant Protection",nan,HORTICULTURE,"JAMMU AND KASHMIR","Farmer asked a query regarding problem in mango mealybug","ManagementBand the trees with 20 cm wide alkathene of polythene 400 gauge in the middle of December 50 cm above the ground level and just below the junction of branching Spraying of Insecticide Oxydemeton methyl 25 EC  1-2 mllitre of water or dimethoate 30 EC  15-2 mllitre of water against mango mealy bugor If necessary apply methyl parathion 1 mllit or chlorpyriphos 20 EC 25 mll",32.7186,74.8581
KOYYALAGUDEM,Fruits,2023,4,21,Mango,"WEST GODAVARI","Plant Protection",nan,HORTICULTURE,"ANDHRA PRADESH","mealybug management in mango","RECOMMENDED TO SPRAY DIMETHOATE  ROGORE 400ML 200 LITRES OF WATER ACRE    400     200         ",16.6443,81.5885
KAMBAM,Fruits,2023,4,26,Mango,THENI,"Plant Protection",nan,HORTICULTURE,TAMILNADU,"Asked about caterpillar and mealybug management in mango "," :           :       2       ",9.86926,77.4223
BHUTA,Fruits,2023,4,17,Mango,BAREILLY,"Plant Protection",nan,HORTICULTURE,"UTTAR PRADESH","Protection measure of mealybug in mango","  Imidacloprid 178 SL  1   2         ",28.4582,79.4047
BILSANDA,Fruits,2023,4,14,Mango,PILIBHIT,"Plant Protection",nan,HORTICULTURE,"UTTAR PRADESH","Information about Mealybug control in mango tree","       Dimethoate 30 EC 2ml          ",28.4947,80.1076
SAFIPUR,Fruits,2023,4,8,Mango,UNNAO,"Plant Protection",nan,HORTICULTURE,"UTTAR PRADESH","Information on the control of mealybug and mango hopper in mango orchard ","                2ml   - 50 WP  3          ",26.5673,80.6198
PANAMARATHUPATTI,Fruits,2023,5,9,Mango,SALEM,"Plant Protection",nan,HORTICULTURE,TAMILNADU,"Asked about mealybug management in mango",":       :    3     05    1     ",11.647,78.2107
BHADOHI,Fruits,2023,5,3,Mango,"SANT RAVIDAS NAGAR BHADOHI","Plant Protection",nan,HORTICULTURE,"UTTAR PRADESH","Give information about the control of mealybug insects in the mango tree","              30  2       ",27.1303,80.8597
SEMARIYAWAN,Fruits,2023,5,15,Mango,"SANT KABIR NAGAR","Plant Protection",nan,HORTICULTURE,"UTTAR PRADESH","Information about mealybug control in mango tree","    30 EC  400     180       ",26.7551,83.0399
PRATAPPUR,Fruits,2023,5,13,Mango,Surajpur,"Plant Protection",nan,HORTICULTURE,CHHATTISGARH,"Farmer wants to know information about control of Mealybug on Mango tree","                                 ",23.3578,82.9761
THIRUMARUGAL,Fruits,2023,6,7,Mango,NAGAPATTINAM,"Plant Protection",nan,HORTICULTURE,TAMILNADU,"Asked about mango mealybug managment","        3       ",10.6026,79.7619
BHADAURA,Fruits,2023,6,17,Mango,GHAZIPUR,"Plant Protection",nan,HORTICULTURE,"UTTAR PRADESH","information about control mango mealybug in mango ","  25    400                                 2      3         ",25.6035,83.5076
DARU,Fruits,2023,6,15,Mango,HAZARIBAGH,"Plant Protection",nan,HORTICULTURE,JHARKAND,"Query of Mealybugs Management ","    178 SL  05 Ml         ",24.0867,85.4912
KARRA,Fruits,2023,6,29,Mango,KHUNTI,"Plant Protection",nan,HORTICULTURE,JHARKAND,"Query of mealybug control in mango ","    178 SL  05 Ml           ",22.9282,85.2814
BEHTA,Fruits,2023,7,21,Mango,SITAPUR,"Plant Protection",nan,HORTICULTURE,"UTTAR PRADESH","Information About Mealybugs management in Mango Plant","  - dimethoate 30EC  2            ",27.5027,80.8335
"NATH NAGAR",Fruits,2023,7,21,Mango,"SANT KABIR NAGAR","Plant Protection",nan,HORTICULTURE,"UTTAR PRADESH","Information on treatment of Gaint mealybug in mango fruit","  - dimethoate 30EC  2            ",26.7551,83.0399
GAGAHA,Fruits,2023,8,4,Mango,GORAKHPUR,"Plant Protection",nan,HORTICULTURE,"UTTAR PRADESH","Information about mealybug control in mango tree","        Quinalphos 25 EC 2 ml         ",26.6678,83.3642
DHANPATGANJ,Fruits,2023,9,3,Mango,SULTANPUR,"Plant Protection",nan,HORTICULTURE,"UTTAR PRADESH","Information about the control of mealybug in mango plant","       30 EC  400 ml  200            ",26.2605,82.2381
"RAMPUR BAGHELAN",Fruits,2023,10,12,Mango,SATNA,"Plant Protection",nan,HORTICULTURE,"MADHYA PRADESH","Farmer wants to know information about control of mealybug in mango crop","          40 EC   4 EC   40 ml ",24.6954,80.777
KAIRANA,Fruits,2023,12,5,Mango,"SHAMLI PRABUDH NAGER","Plant Protection",nan,HORTICULTURE,"UTTAR PRADESH","Information about control of mango mealybug ","              Imidacloprid 178  SL 8 ml  15           ",27.1303,80.8597
REWA,Fruits,2023,12,16,Mango,REWA,"Plant Protection",nan,HORTICULTURE,"MADHYA PRADESH","Farmer wants to know information to control mealybug in mango plant ","              200      ",24.7561,81.3811
LOISINGA,Fruits,2024,1,31,Mango,BALANGIR,"Plant Protection",nan,HORTICULTURE,ODISHA,"Mealybug in mango ","Spray neem oil  3ml 1 liter water and planofix  6ml 15 liter water ",20.6095,83.1673
JUJOMURA,Fruits,2024,2,29,Mango,SAMBALPUR,"Plant Protection",nan,HORTICULTURE,ODISHA,"Mealybug in mango ","Recommended to spray Imidacloprid 178 SL  66 ml per 200 litre of water for 1 acre of land 5 ml in 15 litre water ",21.5571,84.1529
BARGUR,Fruits,2024,2,12,Mango,KRISHNAGIRI,"Plant Protection",nan,HORTICULTURE,TAMILNADU,"Asked about Mealybug management for Mango "," :       :  05      3      1   1       -       :04343-290600",12.5152,78.0094
THAKURDWARA,Fruits,2024,2,16,Mango,MORADABAD,"Plant Protection",nan,HORTICULTURE,"UTTAR PRADESH","Information about the control mealybug f in Mango","      Choloropayriphas 20  25 ML       20CM  400     ",28.8797,78.8095
MITAULI,Fruits,2024,2,8,Mango,KHERI,"Plant Protection",nan,HORTICULTURE,"UTTAR PRADESH","Mango mealybug control in Mango plants information","          20  25        20   400     ",28.1167,80.7167
NAKAHA,Fruits,2024,2,29,Mango,KHERI,"Plant Protection",nan,HORTICULTURE,"UTTAR PRADESH","Information about control of mealybug in mango tree","           Imidacloprid 178 SL  05ml          ",28.1167,80.7167
GADARPUR,Fruits,2024,2,19,Mango,"UDHAM SINGH NAGAR","Plant Protection",nan,HORTICULTURE,UTTARAKHAND,"Information on control of mealybug insect in mango crop","          EMAMECTIN BENZOATE 5 SG  1              ",29.0478,79.4326
NURPUR,Fruits,2024,3,8,Mango,KANGRA,"Cultural Practices",nan,HORTICULTURE,"HIMACHAL PRADESH","Information regarding control of Mealybug in mango ","            200   200        ",32.0769,76.2986
KAIMGANJ,Fruits,2024,3,7,Mango,FARRUKHABAD,"Plant Protection",nan,HORTICULTURE,"UTTAR PRADESH","Mealybug pest problem in Mango Tree","    36  SL  2         ",27.4362,79.4895
TARUN,Fruits,2024,3,23,Mango,FAIZABAD,"Plant Protection",nan,HORTICULTURE,"UTTAR PRADESH","Mealybug problem in mango crop","      Dimethoate 30  EC 2 ML  Sticker 1 ML       ",26.7789,82.1427
DHANPATGANJ,Fruits,2024,3,26,Mango,SULTANPUR,"Plant Protection",nan,HORTICULTURE,"UTTAR PRADESH","Solution to the problem of mealybug in mango plant","    30EC 2-3          OR 2gm     3ml       ",26.2605,82.2381
SARMERA,Fruits,2024,3,31,Mango,NALANDA,"Plant Protection",nan,HORTICULTURE,BIHAR,"Query Related mealybug insect in Mango plant ","             Acephate 75 SP 2          ",25.1365,85.4437
MIRAJ,Fruits,2024,4,2,Mango,SANGLI,"Plant Protection",nan,HORTICULTURE,MAHARASHTRA,"FARMER ASKED ABOUT ATTACK OF MEALYBUG IN MANGO ","         15       ",17.1727,74.5868
FATEHABAD,Fruits,2024,4,2,Mango,AGRA,"Plant Protection",nan,HORTICULTURE,"UTTAR PRADESH","Information about the control of Malformation disease  and  mealybug in Mango","    500    200               Copper oxychloride 50  WP   Imidacloprid 178 SL  100   200 - 300        ",27.1753,78.0098
SANDILA,Fruits,2024,4,2,Mango,HARDOI,"Plant Protection",nan,HORTICULTURE,"UTTAR PRADESH","information about control of mealybug in mango tree","            Imidacloprid 178 SL  05ml          ",27.337,80.0998
SIAR,Fruits,2024,4,3,Mango,BALLIA,"Plant Protection",nan,HORTICULTURE,"UTTAR PRADESH","Information about mealybug control in mango tree","           Quinalphos 25 EC 2ml         ",25.875,84.121
BUDHANA,Fruits,2024,4,16,Mango,MUZAFFARNAGAR,"Plant Protection",nan,HORTICULTURE,"UTTAR PRADESH","information about control of mealybug in mango tree","                 Quinalphos 25 EC 2 ml                          Carbofuran 3G 200                         5  6        ",29.4497,77.7429
BUGAULIYA,Fruits,2024,4,12,Mango,BASTI,"Plant Protection",nan,HORTICULTURE,"UTTAR PRADESH","Mango mealybug control in Mango plants information","          20  25        20   400     ",26.8387,82.5351
KHAIRABAD,Fruits,2024,4,14,Mango,SITAPUR,"Plant Protection",nan,HORTICULTURE,"UTTAR PRADESH","Information about control of mealybug problem in fruits plant","  Malathion 50 EC  2ml           ",27.5027,80.8335
JOYA,Fruits,2024,4,14,Mango,"JYOTIBA PHULE NAGAR","Plant Protection",nan,HORTICULTURE,"UTTAR PRADESH","Information about control of mealybug problem in mango plant","            Malathion 50 EC  2ml           ",28.865,78.4696
SABANG,Fruits,2024,4,13,Mango,"WEST MEDINIPUR","Plant Protection",nan,HORTICULTURE,"WEST BENGAL","ASKING ABOUT THE CONTROL OF MEALYBUG OF MANGO","SPRAY   DIMETHOATE 30 EC  2 ML   LIT OF WATER",22.2789,87.9223
BHAGAWANPUR-II,Fruits,2024,4,13,Mango,"EAST MEDINIPUR","Plant Protection",nan,HORTICULTURE,"WEST BENGAL","ASKING ABOUT CONTROL OF MEALYBUG IN MANGO","SPRAY   THIAMETHOXAM 25 WG  1 GM  2 LIT OF WATER",22.2906,87.9159
BILASPUR,Fruits,2024,4,17,Mango,RAMPUR,"Plant Protection",nan,HORTICULTURE,"UTTAR PRADESH","Information about mango mealybug  insect control in mango ","     75 SP  2          ",28.7935,79.1846
TALUPULA,Fruits,2024,4,25,Mango,ANANTPUR,"Plant Protection",nan,HORTICULTURE,"ANDHRA PRADESH","Farmer asked query about mealybug management in mango"," RECOMMENDED TO SPRAY  CHLORPYRIFOS  20EC CORABONPREDATOR 500 ML200 LITRES OF WATER  ACRE   50EC - 320MLACRE    500     200          ",13.5747,78.5029
SHAHPUR,Fruits,2024,5,2,Mango,MUZAFFARNAGAR,"Plant Protection",nan,HORTICULTURE,"UTTAR PRADESH","Give information about the control of mealybug insects in the mango tree","              30    36  2        ",29.4497,77.7429
PARIKSHITGARH,Fruits,2024,5,3,Mango,MEERUT,"Plant Protection",nan,HORTICULTURE,"UTTAR PRADESH","Give information about the control of mealybug insects in the mango tree","              30  2       ",29.0019,77.768
JAITPUR,Fruits,2024,5,2,Mango,SHAHJAHANPUR,"Plant Protection",nan,HORTICULTURE,"UTTAR PRADESH","Information about to Control of Disease and mealybug  in mango tree   ","              Copper oxychloride 50  WP  30    Imidacloprid 178 SL 7 - 8 ml             ",27.9129,79.7476
JAITPUR,Fruits,2024,5,2,Mango,SHAHJAHANPUR,"Plant Protection",nan,HORTICULTURE,"UTTAR PRADESH","information about control of mealybug in mango tree","            Imidacloprid 178 SL  05ml          ",27.9129,79.7476
SHAMSABAD,Fruits,2024,5,2,Mango,FARRUKHABAD,"Plant Protection",nan,HORTICULTURE,"UTTAR PRADESH","Information about to Control of Disease and mealybug  in mango plant  ","             Copper oxychloride 50  WP  2    Imidacloprid 178 SL 05 ml              ",27.4362,79.4895
SHAMSABAD,Fruits,2024,5,2,Mango,FARRUKHABAD,"Plant Protection",nan,HORTICULTURE,"UTTAR PRADESH","information about control of mealybug and hopper in mango tree ","                  25    400            2      3        ",27.4362,79.4895
SHAMSABAD,Fruits,2024,5,2,Mango,FARRUKHABAD,"Plant Protection",nan,HORTICULTURE,"UTTAR PRADESH","information about control of mealybug in mango tree","             Carbofuran 3G  200                         5  6         ",27.4362,79.4895
UN,Fruits,2024,5,2,Mango,"SHAMLI PRABUDH NAGER","Plant Protection",nan,HORTICULTURE,"UTTAR PRADESH","mealybug problem in Mango tree","    36  SL  2         ",27.1303,80.8597
ARIYANKUPPAM,Fruits,2024,5,8,Mango,PUDUCHERRY,"Plant Protection",nan,HORTICULTURE,PUDUCHERRY,"Asked about mealybug mnagaement in mango smf sapota ",":         :BUPROFEZIN   10   20     ",11.9341,79.8306
PATTUKKOTTAI,Fruits,2024,5,9,Mango,THANJAVUR,"Plant Protection",nan,HORTICULTURE,TAMILNADU,"Asked about mealybug management in mango and hibiscus "," :       : BUPROFEZIN     2    ",10.659,79.2014
BANKI,Fruits,2024,5,17,Mango,BARABANKI,"Plant Protection",nan,HORTICULTURE,"UTTAR PRADESH","Information about to Control of Disease and mealybug  in mango tree   ","            - Copper oxychloride 50  WP  30    Imidacloprid 178 SL 10ml              ",26.9421,81.3856
NARWAR,Fruits,2024,5,27,Mango,SHIVPURI,"Plant Protection",nan,HORTICULTURE,"MADHYA PRADESH","farmer want to know information about how to controls mealybug sucking insects in  mango plant  ","--       mealybug               25             ",25.3741,77.8279
HAMIRPUR,Fruits,2024,6,2,Mango,HAMIRPUR,"Plant Protection",nan,HORTICULTURE,"HIMACHAL PRADESH","Information regarding control of Mealybug in mango ","          200   200        ",31.654,76.5404
HAMIRPUR,Fruits,2024,6,3,Mango,HAMIRPUR,"Plant Protection",nan,HORTICULTURE,"HIMACHAL PRADESH","Information regarding how to control mealybugs in mango plant ","          - 50 2-4    3-4          ",31.654,76.5404
GAIGHATA,Fruits,2024,6,14,Mango,"NORTH 24 PARGANAS","Plant Protection",nan,HORTICULTURE,"WEST BENGAL","ASKING ABOUT CONTROL OF MEALYBUG IN MANGO","SPRAY   THIAMETHOXAM 25 WG  1 GM  2 LIT OF WATER",22.6927,88.6626
"PARALI  V ",Fruits,2024,6,19,Mango,BEED,"Plant Protection",nan,HORTICULTURE,MAHARASHTRA,"Farmer asked about Chemical Control of Mealybug in mango","                  ",18.9918,75.9098
"SADAULI QADEEM",Fruits,2024,6,29,Mango,SAHARANPUR,"Plant Protection",nan,HORTICULTURE,"UTTAR PRADESH","Give Information about of Mealybug Insect Control In Mango Plant ","           Dimethoate 30  EC 2 ml       ",29.9857,77.5041
PIPARIYA,Fruits,2024,7,4,Mango,HOSHANGABAD,"Plant Protection",nan,HORTICULTURE,"MADHYA PRADESH","farmer want to know information about how to controls mealybug sucking insects in mango ","    mealybug           20 EC 25-30       ",22.7546,77.7198
LAUKAHI,Fruits,2024,7,25,Mango,MADHUBANI,"Plant Protection",nan,HORTICULTURE,BIHAR,"Mango mealybug","   17 8  SL  1         ",26.3503,86.2296
THURINJAPURAM,Fruits,2024,8,1,Mango,TIRUVANNAMALAI,"Plant Protection",nan,HORTICULTURE,TAMILNADU,"Asked about mealybug management in mango ",":       :    2      ",12.4289,78.9992
SIRKONI,Fruits,2024,8,1,Mango,JAUNPUR,"Plant Protection",nan,HORTICULTURE,"UTTAR PRADESH","INFORMATION ABOUT PROTECTION OF MANGO FROM MEALYBUG","     25    400                                     2      3        ",25.7967,82.4889
JAITHARA,Fruits,2024,8,17,Mango,ETAH,"Plant Protection",nan,HORTICULTURE,"UTTAR PRADESH","information about control of mealybug in mango tree ","             Carbofuran 3G  300                         5  6        ",27.555,78.5992
DHOND,Fruits,2024,9,16,Mango,SIKAR,"Plant Protection",nan,HORTICULTURE,RAJASTHAN,"ASKED ABOUT TO MANGO MEALYBUG CONTROL IN MANGO ","     25    400                              ",27.6625,75.028
NIDAMANGALAM,Fruits,2024,9,12,Mango,THIRUVARUR,"Plant Protection",nan,HORTICULTURE,TAMILNADU,"Asked about mealybug management for mango ",":      : 10     4     ",10.6879,79.4979
MAYURESWAR-I,Fruits,2024,9,12,Mango,BIRBHUM,"Plant Protection",nan,HORTICULTURE,"WEST BENGAL","ASKING ABOUT CONTROL OF MEALYBUG IN MANGO ","Spray Flubendiamide 1992   Thiacloprid 1992  ww SC 05 ml  lit of water ",24.0622,87.6983
CHHANVEY,Fruits,2024,9,29,Mango,MIRZAPUR,"Plant Protection",nan,HORTICULTURE,"UTTAR PRADESH","Information on control of mealybug in mango tree","  Dimethoate 30 EC 300 ml    200        ",24.9317,82.628
SARAIYA,Fruits,2024,10,26,Mango,MUZAFFARPUR,"Plant Protection",nan,HORTICULTURE,BIHAR,"Query Related To Mealybugs In Mango Plant","              50   18   2        ",26.1483,85.3316
PALI,Fruits,2024,10,27,Mango,UMARIA,"Plant Protection",nan,HORTICULTURE,"MADHYA PRADESH","farmer want to know information about how to controls mealybug sucking insects in  mango crop ","                    25  30        ",23.6432,80.9419
PAIKMAL,Fruits,2024,10,6,Mango,BARGARH,"Plant Protection",nan,HORTICULTURE,ODISHA,"Mealybug infestation in Mango","Recommended to spray Thiomethoxam 25 WG  80-100gm per 200 litre of water 6-75 g per 15 litre water  neem oil  45ml in 15 litre 600ml in 200 litreper 1 acre of land  to control Mealybug infestation in Mango",21.232,83.5653
POWAYAN,Fruits,2024,10,5,Mango,SHAHJAHANPUR,Weather,nan,HORTICULTURE,"UTTAR PRADESH","Give information about the fungus disease  mealybug insect control in the Mango tree ","                36  2 ml     50 WG 3          ",27.9129,79.7476
CHHATOH,Fruits,2024,10,27,Mango,RAEBARELI,"Plant Protection",nan,HORTICULTURE,"UTTAR PRADESH","Information about to Control of  leaves dry and brown color and mealybug  in mango plant  ","               Copper oxychloride 50  WP  30    Imidacloprid 178 SL 75ml             ",26.2087,81.2186
"AKHAND NAGAR",Fruits,2024,10,1,Mango,SULTANPUR,"Plant Protection",nan,HORTICULTURE,"UTTAR PRADESH","Information about mealybug pest control in mango tree","          Quinalphos 25 EC 2ml         ",26.2605,82.2381
PPKAMAICHA,Fruits,2024,10,24,Mango,SULTANPUR,"Plant Protection",nan,HORTICULTURE,"UTTAR PRADESH","Give information about mealybug insect  fungus disease control in Mango trees","                 30  2      36  2      50 WG 3                  15                1 ml  2        ",26.2605,82.2381
MAYURESWAR-I,Fruits,2024,10,15,Mango,BIRBHUM,"Plant Protection",nan,HORTICULTURE,"WEST BENGAL","Asking about can i spray PYMETROZINE 50 WG for control of mealybug control in mango ","SPRAY PYMETROZINE 50 WG  1 GM  LITER OF WATER ",24.0622,87.6983
CHAKIYA,Fruits,2024,11,7,Mango,CHANDAULI,"Plant Protection",nan,HORTICULTURE,"UTTAR PRADESH","Information about mealybug pest control in mango tree","       Quinalphos 25 EC 2ml           ",25.1257,83.2495
NAMAGIRIPET,Fruits,2024,11,12,Mango,NAMAKKAL,"Plant Protection",nan,HORTICULTURE,TAMILNADU,"Asked about management of mealybug in mango ",":       :          : 0422  6611269",11.3034,78.1186
MISRIKH,Fruits,2024,11,11,Mango,SITAPUR,"Plant Protection",nan,HORTICULTURE,"UTTAR PRADESH","Give Information about of mealybug insect control in Mango plant  ","           Dimethoate 30  EC 2 ml       ",27.5027,80.8335
VAIKOM,Fruits,2024,11,14,Mango,KOTTAYAM,"Plant Protection",nan,HORTICULTURE,KERALA,"Asked about management of mealybug in mango","  20   5       5      25  2   Spray Beauveria bassiana 20g or 5ml in one litre water OR Nimbecidin 5mlL In severe cases spray Quinalphos 25 EC 2mlL",9.62874,76.6455
TADEPALLE,Fruits,2024,11,22,Mango,GUNTUR,"Plant Protection",nan,HORTICULTURE,"ANDHRA PRADESH","farmer asked query on mealybug and Aphids management in mango  ","RECOMMENDED TO SPRAY DIMETHOATE  ROGER 400 ML 200 LITRES OF WATER ACRE   400   200        ",16.2915,80.4542
PATTI,Fruits,2024,11,26,Mango,PRATAPGARH,"Plant Protection",nan,HORTICULTURE,"UTTAR PRADESH","Information About Control of Mango Mealybug ","     Imidacloprid 178 SL  05            ",25.75,81.75
PINDRA,Fruits,2024,12,13,Mango,VARANASI,"Plant Protection",nan,HORTICULTURE,"UTTAR PRADESH","Information about the insect control of  Mealybug in mango tree ","            Monocrotophos 36 SL  40-50   15       ",25.3356,83.0076
PINDRA,Fruits,2024,12,13,Mango,VARANASI,"Plant Protection",nan,HORTICULTURE,"UTTAR PRADESH","Information about the insect control of  Mealybug in mango tree ","            Monocrotophos 36 SL 40 -50   15         ",25.3356,83.0076
GYANPUR,Fruits,2024,12,21,Mango,"SANT RAVIDAS NAGAR BHADOHI","Plant Protection",nan,HORTICULTURE,"UTTAR PRADESH","Information about to Control of Disease and mealybug  in mango plant  ","       Copper oxychloride 50  WP  30    Imidacloprid 178 SL 75ml             ",27.1303,80.8597
"RAMPUR NAIKIN",Fruits,2024,12,23,Mango,SIDHI,"Plant Protection",nan,HORTICULTURE,"MADHYA PRADESH","Farmer wants to know information about control of mango mealybug ","        20    25          ",24.2113,81.7
Bhadar,Fruits,2024,12,27,Mango,"AMETHI  Shahu Ji Maharaj","Plant Protection",nan,HORTICULTURE,"UTTAR PRADESH","Information about the control of mealybug in mango","  Chlorpyrifos 20 EC 25            ",27.1303,80.8597
HAMIRPUR,Fruits,2025,1,30,Mango,HAMIRPUR,"Plant Protection",,HORTICULTURE,"HIMACHAL PRADESH","Information regarding control of Mealybug in mango ","          200   200        ",31.654,76.5404
HAMIRPUR,Fruits,2025,1,30,Mango,HAMIRPUR,"Plant Protection",,HORTICULTURE,"HIMACHAL PRADESH","Information regarding control of Mealybug in mango ","                 15     250        ",31.654,76.5404
BISALPUR,Fruits,2025,1,18,Mango,PILIBHIT,"Plant Protection",,HORTICULTURE,"UTTAR PRADESH","Information about  mealybug insect control in Mango ","        5  6 ml         ",28.4947,80.1076
KUDARAHA,Fruits,2025,1,16,Mango,BASTI,"Plant Protection",,HORTICULTURE,"UTTAR PRADESH","Information on control of mealybug in mango tree","    Choloropayriphas 20   25        ",26.8387,82.5351
HARRAIYA,Fruits,2025,1,18,Mango,BASTI,"Plant Protection",,HORTICULTURE,"UTTAR PRADESH","Information about control of mealybug in mango tree","            Imidacloprid 178 SL  05ml                    ",26.8387,82.5351
NAWABGANJ,Fruits,2025,1,13,Mango,GONDA,"Plant Protection",,HORTICULTURE,"UTTAR PRADESH","Information about the control of Mealybug and fungal infection in Mango ","           178 SL  05 ml      75 WP  2 gm           ",27.1104,81.9239
PRAYAGPUR,Fruits,2025,1,9,Mango,BAHRAICH,"Plant Protection",,HORTICULTURE,"UTTAR PRADESH","Information about preventing mealybugs from climbing the stem of mango plants","                                            100             ",27.7344,81.4765
BANKURA-I,Fruits,2025,1,27,Mango,BANKURA,"Plant Protection",,HORTICULTURE,"WEST BENGAL","ASKED TO CONTROL MEALYBUG IN MANGO"," RECOMMENDED FOR SPRAY   ACEPHATE 75 SP  15 GM  2 LIT OF WATER",23.1324,87.2082
MAJHAULI,Fruits,2025,2,10,Mango,SIDHI,"Plant Protection",,HORTICULTURE,"MADHYA PRADESH","farmer want information regarding to control  mealybug in mango crop ","         178  10   15       ",24.2113,81.7
"POLLACHI NORTH",Fruits,2025,2,19,Mango,COIMBATORE,"Plant Protection",,HORTICULTURE,TAMILNADU,"Asked about mealybug management in mango","           2       ",11.0018,76.9628
"POLLACHI NORTH",Fruits,2025,2,19,Mango,COIMBATORE,"Plant Protection",,HORTICULTURE,TAMILNADU,"Asked about Mango mealybug management ",":      :   10   3     ",11.0018,76.9628
SHERGARH,Fruits,2025,2,2,Mango,BAREILLY,"Plant Protection",,HORTICULTURE,"UTTAR PRADESH","Information about the control of  mango mealybug","    178 SL  05 ml             ",28.4582,79.4047
KHAIRABAD,Fruits,2025,2,18,Mango,SITAPUR,"Plant Protection",,HORTICULTURE,"UTTAR PRADESH","Information on mealybug control in mango trees","       Quinalphos 25 EC 2 ml          ",27.5027,80.8335
MASODHA,Fruits,2025,2,20,Mango,FAIZABAD,"Plant Protection",,HORTICULTURE,"UTTAR PRADESH","Information regarding control of Mango mealybug in mango plant","  Imidacloprid 178 SL  05 ml          ",26.7789,82.1427
NAWABGANJ,Fruits,2025,2,2,Mango,GONDA,"Plant Protection",,HORTICULTURE,"UTTAR PRADESH","Information about control of mealybug in mango tree","            Imidacloprid 178 SL  05ml          ",27.1104,81.9239
CHITAURA,Fruits,2025,2,7,Mango,BAHRAICH,"Plant Protection",,HORTICULTURE,"UTTAR PRADESH","Information about the control of sucking pest mealybug  in Mango ","   178 SL  05 ml         ",27.7344,81.4765
BANKURA-II,Fruits,2025,2,16,Mango,BANKURA,"Plant Protection",,HORTICULTURE,"WEST BENGAL","ASKING ABOUT CONTROL OF MEALYBUG IN MANGO","SPRAY ACEPHATE 50  IMIDACLOPRID 18 518 SP  2 GM  LIT OF WATER",23.1324,87.2082
BISHNUGARH,Fruits,2025,2,25,Mango,HAZARIBAGH,"Plant Protection",,HORTICULTURE,JHARKAND,"Mealybug management in mango ","    178 SL  1 Ml           ",24.0867,85.4912
FATUHA,Fruits,2025,3,22,Mango,PATNA,"Plant Protection",,HORTICULTURE,BIHAR,"Query about mealybug in mango","              17 8  SL  1           30  EC 1            ",25.6093,85.1235
BEN,Fruits,2025,3,22,Mango,NALANDA,"Plant Protection",,HORTICULTURE,BIHAR,"Mealybug in Mango","                 178  1 ml 3        ",25.1365,85.4437
PIRO,Fruits,2025,3,21,Mango,BHOJPUR,"Plant Protection",,HORTICULTURE,BIHAR,"Query Related To Mealybugs In Mango Plant","              30  2        ",25.4501,84.5635
TEKARI,Fruits,2025,3,22,Mango,GAYA,"Plant Protection",,HORTICULTURE,BIHAR,"Mealybug in Mango ","             178  1 3    25 WG 1 g lt        1-2 ml                 2   ",24.6794,85.0116
"UDA KISHANGANJ",Fruits,2025,3,1,Mango,MADHEPURA,"Plant Protection",,HORTICULTURE,BIHAR," Mealybug  in mango","--           ",25.7806,86.9365
"UDA KISHANGANJ",Fruits,2025,3,1,Mango,MADHEPURA,"Plant Protection",,HORTICULTURE,BIHAR,"Query Related To Mealybugs In Mango Plant","               75 SP 2         ",25.7806,86.9365
SAMASTIPUR,Fruits,2025,3,17,Mango,SAMASTIPUR,"Plant Protection",,HORTICULTURE,BIHAR,"Protection of mealybugs","      75  15         ",25.7748,85.8672
BRAHMPUR,Fruits,2025,3,22,Mango,BUXAR,"Plant Protection",,HORTICULTURE,BIHAR,"mealybug management in mango","      178 SL  1 Ml3         ",25.5045,84.1097
KAKO,Fruits,2025,3,11,Mango,JEHANABAD,"Plant Protection",,HORTICULTURE,BIHAR,"Query Related To Mealybugs In Mango Plant","              50  18 SP 3         ",25.153,85.0065
KULLU,Fruits,2025,3,24,Mango,KULLU,"Plant Protection",,HORTICULTURE,"HIMACHAL PRADESH","Information regarding control of Mealybug in mango ","          01  01        ",31.9579,77.1089
MALTHONE,Fruits,2025,3,11,Mango,SAGAR,"Plant Protection",,HORTICULTURE,"MADHYA PRADESH","Farmer want to know information about how to controls mealybug in Mango plant  ","          FMC Marshal  25 EC 30         ",23.8083,78.7583
BETUL,Fruits,2025,3,2,Mango,BETUL,"Plant Protection",,HORTICULTURE,"MADHYA PRADESH","Farmer wants information about control of mealybug pest in mango plants","                   40   4  35-40        ",21.8797,77.8754
REWA,Fruits,2025,3,2,Mango,REWA,"Plant Protection",,HORTICULTURE,"MADHYA PRADESH","Farmer want to know information about how to controls mealybug sucking insects in mango crop","           5   50 EC 25-30    15        ",24.7561,81.3811
THURINJAPURAM,Fruits,2025,3,6,Mango,TIRUVANNAMALAI,"Plant Protection",,HORTICULTURE,TAMILNADU,"Asked about mealybug management in mango"," :       : 10    4      ",12.4289,78.9992
"BHAWAL KHERA",Fruits,2025,3,4,Mango,SHAHJAHANPUR,"Plant Protection",,HORTICULTURE,"UTTAR PRADESH","Give information about the control of mealybug insects in the mango tree","                                        30  2       ",27.9129,79.7476
BISALPUR,Fruits,2025,3,17,Mango,PILIBHIT,"Plant Protection",,HORTICULTURE,"UTTAR PRADESH","information about Mango mealybug Control in Mango  ","    30 EC  2          ",28.4947,80.1076
BARKHERA,Fruits,2025,3,25,Mango,PILIBHIT,"Plant Protection",,HORTICULTURE,"UTTAR PRADESH","Information about control of Mango mealybug in Mango and jack fruit crop","  Quinalphos 25 EC  25 ml          ",28.4947,80.1076
KHUTHAN,Fruits,2025,3,15,Mango,JAUNPUR,"Plant Protection",,HORTICULTURE,"UTTAR PRADESH","Information on control of Mango mealybug on mango plants","             36 sl  2 ml           ",25.7967,82.4889
"DEORIA SADAR",Fruits,2025,3,17,Mango,DEORIA,"Plant Protection",,HORTICULTURE,"UTTAR PRADESH","Information about control of Mango mealybug in mango plant","           30   25            ",26.424,83.7639
MANKAPUR,Fruits,2025,3,18,Mango,GONDA,"Plant Protection",,HORTICULTURE,"UTTAR PRADESH","Information about mealybug pest control on mango trees","       Quinalphos 25 EC 2 ml          ",27.1104,81.9239
KADIPUR,Fruits,2025,3,9,Mango,SULTANPUR,"Plant Protection",,HORTICULTURE,"UTTAR PRADESH","Give information about Mealybugs insect control in Mango plant ","            30 EC  2 ml               ",26.2605,82.2381
AKBARPUR,Fruits,2025,3,13,Mango,"AMBEDKAR NAGAR","Plant Protection",,HORTICULTURE,"UTTAR PRADESH","Information on control of Mango mealybug on mango plants","             36 sl  2 ml           ",26.4046,82.6065
MAHAGAMA,Fruits,2025,3,25,Mango,GODDA,"Plant Protection",,HORTICULTURE,JHARKAND,"Mealybugs  management ","     5  SC  2ml         ",24.8646,87.2985
RUDRAPUR,Fruits,2025,3,12,Mango,"UDHAM SINGH NAGAR","Plant Protection",,HORTICULTURE,UTTARAKHAND,"information about Mealybugs insect control in mango ","            30   2             ",29.0478,79.4326
RAJNAGAR,Fruits,2025,3,27,Mango,MADHUBANI,"Plant Protection",,HORTICULTURE,BIHAR,"Mealybug insect management ","                 178 SL       05ml                                           ",26.3503,86.2296
GAURABAURAM,Fruits,2025,3,30,Mango,DARBHANGA,"Plant Protection",,HORTICULTURE,BIHAR,"Control the mango mealybug","           30   2           I ",26.083,86.0325
KALYANPUR,Fruits,2025,3,30,Mango,SAMASTIPUR,"Plant Protection",,HORTICULTURE,BIHAR,"MANGO MEALYBUG","  30 EC  2  3        ",25.7748,85.8672
JAYNAGAR-I,Fruits,2025,3,30,Mango,"SOUTH 24 PARGANAS","Plant Protection",,HORTICULTURE,"WEST BENGAL","Asking about  control of mealybug and sucking  insect in mango plant  "," SPRAY DIMETHOATE 30 EC  2 ML  LIT OF WATERORSPRAY IMIDACLOPRID 178 SL  1 ML  5 LIT OF WATER ORSPRAY ACEPHATE 75 SP  15 GM  2 LIT OF WATER ",22.1777,88.5308
JAYNAGAR-I,Fruits,2025,3,30,Mango,"SOUTH 24 PARGANAS","Plant Protection",,HORTICULTURE,"WEST BENGAL","Asking about  control of mealybug and sucking  insect in mango plant  "," SPRAY DIMETHOATE 30 EC  2 ML  LIT OF WATERORSPRAY IMIDACLOPRID 178 SL  1 ML  5 LIT OF WATER ORSPRAY ACEPHATE 75 SP  15 GM  2 LIT OF WATER ",22.1777,88.5308
